{"trip": [
{"address":"제주특별자치도 제주시 애월읍 소길리 1364 일대","latitude":33.402027,"label":"관광지","title":"원동","phoneno":"해당정보없음","longitude":126.3803},

{"address":"제주특별자치도 제주시 화북1동 1537","latitude":33.526237,"label":"관광지","title":"별도연대","phoneno":"해당정보없음","longitude":126.56813},

{"address":"제주특별자치도 서귀포시 남원읍 수망리 893","latitude":33.350883,"label":"관광지","title":"현의합장묘역","phoneno":"해당정보없음","longitude":126.69801},

{"address":"제주특별자치도 서귀포시 정방동","latitude":33.24646,"label":"관광지","title":"서귀본향당","phoneno":"해당정보없음","longitude":126.565506},

{"address":"제주특별자치도 서귀포시 대정읍 상모리 141","latitude":33.2089571,"label":"관광지","title":"송악힐링풋스킨","phoneno":"064-794-8859","longitude":126.2892567},

{"address":"제주특별자치도 서귀포시 표선면 돈오름로 170","latitude":33.32985,"label":"관광지","title":"허브동산 미디어 파사드 (media facade)","phoneno":"064-787-7362","longitude":126.81486},

{"address":"제주시 애월읍 광령남6길 54 백제사","latitude":33.448807,"label":"관광지","title":"백제사","phoneno":"064-746-8009","longitude":126.42422},

{"address":"제주특별자치도 서귀포시 표선면 토산리 산2","latitude":33.33146,"label":"관광지","title":"가세오름","phoneno":"064-760-4461","longitude":126.78151},

{"address":"제주특별자치도 제주시 건입동 940-3 일대","latitude":33.516888,"label":"관광지","title":"산지항 옛터","phoneno":"해당정보없음","longitude":126.53469},

{"address":"제주특별자치도 제주시 삼도2동 907-11","latitude":33.511913,"label":"관광지","title":"조일구락부 옛터","phoneno":"해당정보없음","longitude":126.52066},

{"address":"제주 제주시 삼양3동","latitude":33.5232424,"label":"관광지","title":"삼양방파제","phoneno":null,"longitude":126.5764205},

{"address":"제주특별자치도 서귀포시 서홍동 1003","latitude":33.252937,"label":"관광지","title":"하논마르","phoneno":"해당정보없음","longitude":126.54583},

{"address":"제주특별자치도 제주시 내도동 475","latitude":33.4961622,"label":"관광지","title":"이호-내도 해안도로","phoneno":null,"longitude":126.4413081},

{"address":"제주특별자치도 제주시 화북1동 4269-12","latitude":33.52501,"label":"관광지","title":"별도포구","phoneno":"해당정보없음","longitude":126.564995},

{"address":"제주특별자치도 서귀포시 남원읍 신례리","latitude":33.36067,"label":"관광지","title":"오림반","phoneno":"해당정보없음","longitude":126.59719},

{"address":"제주특별자치도 제주시 애월읍 광령리 2535  제주관광대학교 내 창업보육센터 본관 315호","latitude":33.4487267,"label":"관광지","title":"고사리숲","phoneno":"010-6572-0305","longitude":126.4339396},

{"address":"제주특별자치도 제주시 애월읍 유수암리 1920","latitude":33.441765,"label":"관광지","title":"금덕무환자나무및팽나무군락","phoneno":"064-728-2731","longitude":126.40065},

{"address":"제주특별자치도 서귀포시 안덕면 감산리 1148 일대","latitude":33.245667,"label":"관광지","title":"월나봉(도래오름)","phoneno":null,"longitude":126.3499},

{"address":"제주특별자치도 제주시 건입동 956-16","latitude":33.5170679,"label":"관광지","title":"칠머리길","phoneno":null,"longitude":126.5359943},

{"address":"제주특별자치도 제주시 삼양1동 1938-9","latitude":33.5294857,"label":"관광지","title":"삼양 셋다리물","phoneno":null,"longitude":126.5894095},

{"address":"제주특별자치도 제주시 용담2동 2002","latitude":33.50639,"label":"관광지","title":"제주국제공항(정뜨르비행장)","phoneno":"해당정보없음","longitude":126.49525},

{"address":"제주특별자치도 제주시 추자면 예초리","latitude":33.95313,"label":"관광지","title":"예초리해변","phoneno":"해당정보없음","longitude":126.33361},

{"address":"제주시 한림읍 금악리 373","latitude":33.348213,"label":"관광지","title":"성클라라수도원 금악성당","phoneno":"064-796-4180","longitude":126.31942},

{"address":"제주특별자치도 제주시 삼도1동 305-4","latitude":33.499622,"label":"관광지","title":"제주농업학교 옛터","phoneno":"해당정보없음","longitude":126.53119},

{"address":"제주특별자치도 서귀포시 성산읍 신산리","latitude":33.38476,"label":"관광지","title":"신산환해장성","phoneno":"해당정보없음","longitude":126.86652},

{"address":"제주특별자치도 제주시 삼도2동 114","latitude":33.51162,"label":"관광지","title":"천주교 순례길 - 신축화해길","phoneno":"070-8870-4578","longitude":126.523155},

{"address":"제주특별자치도 서귀포시 표선면 성읍리 820-1","latitude":33.4112985,"label":"관광지","title":"정의향교","phoneno":"064-2693-2037","longitude":126.7819256},

{"address":"제주특별자치도 제주시 한림읍 수원리 1027-7","latitude":33.426956,"label":"관광지","title":"대수포구","phoneno":"해당정보없음","longitude":126.27057},

{"address":"제주특별자치도 제주시 조천읍 신흥리 59-8","latitude":33.548756,"label":"관광지","title":"단산과 방사탑","phoneno":"064-760-2505","longitude":126.65135},

{"address":"제주특별자치도 제주시 조천읍 함덕리 1008","latitude":33.544018,"label":"관광지","title":"함덕야영장","phoneno":"064-728-7822","longitude":126.66839},

{"address":"제주특별자치도 서귀포시 성산읍","latitude":33.38106,"label":"관광지","title":"신양연안바다목장","phoneno":"해당정보없음","longitude":126.876755},

{"address":"제주특별자치도 제주시 오라이동 산 100","latitude":33.3616666,"label":"관광지","title":"제주미래교육연구원 과학탐구체험장","phoneno":"064-710-0800","longitude":126.5291666},

{"address":"제주특별자치도 제주시 한림읍 수원리 952","latitude":33.427593,"label":"관광지","title":"평수포구","phoneno":"해당정보없음","longitude":126.263756},

{"address":"제주특별자치도 서귀포시 신효동","latitude":33.2680232,"label":"관광지","title":"월라봉(효돈)","phoneno":null,"longitude":126.6027262},

{"address":"제주특별자치도 제주시 아라일동 6093-2","latitude":33.4752059,"label":"관광지","title":"나틸다","phoneno":"010-5381-0102","longitude":126.5427649},

{"address":"제주특별자치도 서귀포시 서귀동 405-3 (지하)","latitude":33.24793,"label":"관광지","title":"문화빳데리 충전소","phoneno":"064-738-5855","longitude":126.5645823},

{"address":"제주특별자치도 서귀포시 남원읍 하례리","latitude":33.3420367,"label":"관광지","title":"남내소","phoneno":null,"longitude":126.5884214},

{"address":"제주특별자치도 제주시 건입동 918-32 일대","latitude":33.51911,"label":"관광지","title":"주정공장(동척회사) 옛터","phoneno":"해당정보없음","longitude":126.5345},

{"address":"제주특별자치도 제주시 일도1동 1100-12","latitude":33.5114291,"label":"관광지","title":"남수각 하늘길 벽화거리","phoneno":null,"longitude":126.5278268},

{"address":"제주특별자치도 제주시 애월읍 애월리 2490-1","latitude":33.462353,"label":"관광지","title":"(주)제주해양레저 투명카약","phoneno":"064-743-0051","longitude":126.31049},

{"address":"제주특별자치도 제주시 한림읍 대림리","latitude":33.424404,"label":"관광지","title":"대림리선돌","phoneno":"해당정보없음","longitude":126.27907},

{"address":"제주특별자치도 제주시 노형동 산 19-2","latitude":33.412613,"label":"관광지","title":"제주시 충혼묘지 4·3추모비(박진경 추도비)","phoneno":"해당정보없음","longitude":126.49653},

{"address":"제주특별자치도 서귀포시 안덕면 서광리 산 35-16","latitude":33.3038299,"label":"관광지","title":"액트(AC.lll.T) 볼링장","phoneno":"064-900-5817","longitude":126.3147293},

{"address":"제주특별자치도 제주시 연동 463","latitude":33.480735,"label":"관광지","title":"꿈바당 어린이도서관","phoneno":"064-745-7101","longitude":126.5002152},

{"address":"제주특별자치도 제주시 구좌읍 하도리 1249","latitude":33.5157049,"label":"관광지","title":"이로이로공방","phoneno":"010-2871-0729","longitude":126.8864438},

{"address":"제주특별자치도 제주시 이도2동 2036-1","latitude":33.4888785,"label":"관광지","title":"미요캔들","phoneno":"064-752-9001","longitude":126.5342351},

{"address":"제주특별자치도 제주시 구좌읍 평대리 515-67","latitude":33.532413,"label":"관광지","title":"평대리불턱","phoneno":"해당정보없음","longitude":126.84636},

{"address":"제주특별자치도 제주시 추자면 묵리 산 131-1","latitude":33.952576,"label":"관광지","title":"참굴비조형물","phoneno":"해당정보없음","longitude":126.30432},

{"address":"제주특별자치도 서귀포시 대정읍 일과리 1924-4","latitude":33.243894,"label":"관광지","title":"바당미술관","phoneno":"010-4210-0404","longitude":126.2187834},

{"address":"제주특별자치도 제주시 구좌읍 동복리","latitude":33.53544,"label":"관광지","title":"동복환해장성","phoneno":"해당정보없음","longitude":126.71806},

{"address":"제주특별자치도 서귀포시 영남동 224 일대","latitude":33.288883,"label":"관광지","title":"영남동","phoneno":"해당정보없음","longitude":126.496925},

{"address":"제주특별자치도 제주시 한경면 조수리","latitude":33.337276,"label":"관광지","title":"조수리 농어촌체험마을","phoneno":"064-773-1945","longitude":126.22851},

{"address":"제주특별자치도 서귀포시 중문동 1498","latitude":33.499622,"label":"관광지","title":"중문리 신사터","phoneno":"해당정보없음","longitude":126.53119},

{"address":"제주특별자치도 서귀포시 강정동 1528-3 ","latitude":33.2615636,"label":"관광지","title":"굿다이버","phoneno":"064-762-7677","longitude":126.49446999999998},

{"address":"제주특별자치도 서귀포시 안덕면 사계리","latitude":0.0,"label":"관광지","title":"병악현무암지대","phoneno":"해당정보없음","longitude":0.0},

{"address":"제주특별자치도 제주시 아라1동 387","latitude":33.426136,"label":"관광지","title":"관음사 군 주둔지 옛터","phoneno":"-724-6830","longitude":126.56269},

{"address":"제주특별자치도 서귀포시 남원읍 서성로 684-5","latitude":33.32588,"label":"관광지","title":"제주오렌지","phoneno":"064-764-8800","longitude":126.66985},

{"address":"제주특별자치도 서귀포시 안덕면 동광리 1425 일대","latitude":33.311443,"label":"관광지","title":"삼밭구석 & 동광리4·3희생자위령비","phoneno":"해당정보없음","longitude":126.330444},

{"address":"제주특별자치도 서귀포시 표선면 토산리 산 13","latitude":33.322395,"label":"관광지","title":"토산봉(망오름)","phoneno":null,"longitude":126.77359},

{"address":"제주특별자치도 서귀포시 안덕면 동광리 807-4","latitude":33.30914,"label":"관광지","title":"임문숙 가족 헛묘","phoneno":"해당정보없음","longitude":126.340614},

{"address":"제주특별자치도 서귀포시 동홍동 1530-2","latitude":33.2557649,"label":"관광지","title":"서귀포의료원","phoneno":"064-730-3000","longitude":126.5645342},

{"address":"제주특별자치도 제주시 애월읍 소길리 952-2","latitude":33.4160695,"label":"관광지","title":"멍멍플레이스","phoneno":"0507-1307-4661","longitude":126.3794271},

{"address":"제주특별자치도 서귀포시 대정읍 가파리 696","latitude":33.119247,"label":"관광지","title":"가파초등학교 마라분교장","phoneno":"해당정보없음","longitude":126.26694},

{"address":"제주특별자치도 서귀포시 남원읍 의귀리 1975","latitude":33.318977,"label":"관광지","title":"송령이골","phoneno":"해당정보없음","longitude":126.70537},

{"address":"제주특별자치도 제주시 구좌읍 한동리 1694","latitude":33.551777,"label":"관광지","title":"한동환해장성","phoneno":"해당정보없음","longitude":126.82788},

{"address":"제주특별자치도 제주시 조천읍 조천리","latitude":33.539413,"label":"관광지","title":"조천비석거리","phoneno":"해당정보없음","longitude":126.63747},

{"address":"제주특별자치도 서귀포시 표선면 신천리","latitude":33.350605,"label":"관광지","title":"신천리(용궁올레)","phoneno":"해당정보없음","longitude":126.85242},

{"address":"제주특별자치도 제주시 아라1동 산 66-8","latitude":33.422096,"label":"관광지","title":"제주불교성지 순례길 절로 가는길 - 인욕의 길","phoneno":"해당정보없음","longitude":126.55877},

{"address":"제주특별자치도 제주시 애월읍 신엄리","latitude":33.4729053,"label":"관광지","title":"신엄포구","phoneno":null,"longitude":126.3502475},

{"address":"제주특별자치도 제주시 애월읍 봉성리 1410 일대","latitude":33.40464,"label":"관광지","title":"자리왓","phoneno":"해당정보없음","longitude":126.32806},

{"address":"제주특별자치도 서귀포시 대정읍 상모리 153","latitude":33.207508,"label":"관광지","title":"동알오름","phoneno":null,"longitude":126.28816},

{"address":"제주시 한림읍 수원리 725-1","latitude":33.42559,"label":"관광지","title":"테우마을 수원리 농어촌체험마을","phoneno":"064-796-7222","longitude":126.264656},

{"address":"제주특별자치도 서귀포시 표선면 성읍리 690","latitude":33.38825,"label":"관광지","title":"정의현 일관헌","phoneno":"064-760-2505","longitude":126.800995},

{"address":"제주특별자치도 서귀포시 표선면 가시리 산 87-24","latitude":33.3988071,"label":"관광지","title":"족은사슴이오름","phoneno":null,"longitude":126.7063341},

{"address":"제주특별자치도 제주시 구좌읍 송당리 산 140-2","latitude":33.44329,"label":"관광지","title":"선족이오름(알선족이)","phoneno":null,"longitude":126.75144},

{"address":"제주특별자치도 서귀포시 표선면 가시리 산 158","latitude":33.3708091,"label":"관광지","title":"가문이오름(감은이오름)","phoneno":"064-760-4400","longitude":126.6935196},

{"address":"제주특별자치도 제주시 한경면 조수리 553-1","latitude":33.3412645,"label":"관광지","title":"유리멘탈 스튜디오","phoneno":null,"longitude":126.2286517},

{"address":"제주특별자치도 제주시 애월읍 어음리 산 1","latitude":33.395871963046226,"label":"관광지","title":"발이오름","phoneno":null,"longitude":126.34628767625736},

{"address":"제주특별자치도 제주시 조천읍 북촌리","latitude":33.536594,"label":"관광지","title":"북촌환해장성","phoneno":"해당정보없음","longitude":126.69666},

{"address":"제주특별자치도 제주시 삼도2동 154","latitude":33.510861,"label":"관광지","title":"예술공간 이아","phoneno":"064-800-9331","longitude":126.5219859},

{"address":"제주특별자치도 서귀포시 서귀동 솔동산로","latitude":33.242863,"label":"관광지","title":"솔동산8경","phoneno":"해당정보없음","longitude":126.563644},

{"address":"제주특별자치도 제주시 삼도이동 17-3","latitude":33.5149598,"label":"관광지","title":"김영수도서관","phoneno":"064-717-3358","longitude":126.52170419999993},

{"address":"제주특별자치도 서귀포시 신효동 579-2","latitude":33.2687804,"label":"관광지","title":"월라사","phoneno":"064-767-0269","longitude":126.6101134},

{"address":"제주특별자치도 제주시 조천읍 선흘리 1817","latitude":33.4777041,"label":"관광지","title":"포레스트 사파리","phoneno":"064-783-0300","longitude":126.7135515},

{"address":"제주특별자치도 제주시 한림읍 명월리 1767-1","latitude":33.38698,"label":"관광지","title":"명월팽나무군락","phoneno":"064-728-7672","longitude":126.26671},

{"address":"제주특별자치도 제주시 이호1동 1787","latitude":33.497173,"label":"관광지","title":"이호털보네배낚시","phoneno":"064-743-1287","longitude":126.44942},

{"address":"제주특별자치도 서귀포시 대정읍 상모리 3846","latitude":33.22652,"label":"관광지","title":"강병대교회","phoneno":"070-7790-3860","longitude":126.25722},

{"address":"제주특별자치도 제주시 일도2동 168-2","latitude":33.5078895,"label":"관광지","title":"통일관","phoneno":"064)751-0191~2","longitude":126.5345087},

{"address":"제주특별자치도 서귀포시 동홍동 234-8","latitude":33.2663197,"label":"관광지","title":"소라의성","phoneno":"064-732-7128","longitude":126.5671727},

{"address":"제주특별자치도 제주시 애월읍 하가리","latitude":33.45789,"label":"관광지","title":"육시우영","phoneno":"해당정보없음","longitude":126.35208},

{"address":"제주특별자치도 서귀포시 대정읍 안성리 1681-1","latitude":33.25089,"label":"관광지","title":"송계순집터","phoneno":"064-760-2505","longitude":126.27759},

{"address":"제주특별자치도 제주시 한림읍 월림리 산 8","latitude":33.355522,"label":"관광지","title":"더마카트","phoneno":"064-795-8080","longitude":126.24203},

{"address":"제주특별자치도 제주시 애월읍 금성리 573-1","latitude":33.44681,"label":"관광지","title":"금성포구","phoneno":"해당정보없음","longitude":126.29828},

{"address":"제주특별자치도 제주시 구좌읍 송당리 산 255-1","latitude":33.431633,"label":"관광지","title":"도리미오름","phoneno":null,"longitude":126.77203},

{"address":"제주특별자치도 제주시 한림읍 귀덕리","latitude":33.44414701917589,"label":"관광지","title":"소나기(카약올레)","phoneno":"070-4548-6492","longitude":126.29352622672275},

{"address":"제주특별자치도 제주시 일도일동 1243-1","latitude":33.5149744,"label":"관광지","title":"제주사랑방(제주책방)","phoneno":"064-727-0613","longitude":126.5283867},

{"address":"제주특별자치도 서귀포시 색달동 1992","latitude":33.2486522,"label":"관광지","title":"김서프제주","phoneno":"064-739-6355","longitude":126.4124374},

{"address":"제주특별자치도 제주시 구좌읍 세화리 2668-2","latitude":33.470287,"label":"관광지","title":"다랑쉬마을","phoneno":"해당정보없음","longitude":126.8238},

{"address":"제주특별자치도 서귀포시 중문동 2563-1","latitude":33.2429044,"label":"관광지","title":"씨에스호텔 프라이빗스파","phoneno":"064-735-3000","longitude":126.4204352},

{"address":"제주특별자치도 서귀포시 표선면 성읍리 1734","latitude":33.404278,"label":"관광지","title":"성읍목장","phoneno":"해당정보없음","longitude":126.791985}
]}